{
  "updatedAt": "2026-02-10",
  "about": "רק מקומות שהם 100% טבעוניים (מסעדות/חנויות). עדכנו פרטים אם משהו השתנה.",
  "places": [
    {
      "id": "teva-haochel-kfar-saba",
      "type": "restaurant",
      "typeLabel": "מסעדה",
      "name": "טבע האוכל",
      "city": "כפר סבא",
      "region": "מרכז",
      "address": "ויצמן 140, כפר סבא",
      "website": "https://www.tevahaochel.online/",
      "instagram": "",
      "notes": "מסעדה 100% טבעונית בסגנון ביתי",
      "lat": 32.175,
      "lng": 34.9069
    },
    {
      "id": "simonchu-tel-aviv",
      "type": "restaurant",
      "typeLabel": "בית קפה ומאפייה",
      "name": "סימונצ׳ו",
      "city": "תל אביב-יפו",
      "region": "מרכז",
      "address": "דרך שלמה 3, תל אביב-יפו",
      "website": "https://simonchu.co.il/",
      "instagram": "",
      "notes": "בית קפה ומאפייה טבעונית המתמחה במאפים ועוגות בעבודת יד",
      "lat": 32.0526,
      "lng": 34.7611
    },
    {
      "id": "anicca-tel-aviv",
      "type": "restaurant",
      "typeLabel": "בית קפה ומסעדה",
      "name": "אניצ׳ה",
      "city": "תל אביב-יפו",
      "region": "מרכז",
      "address": "דיזנגוף 130, תל אביב-יפו",
      "website": "https://www.anicca.co.il/",
      "instagram": "",
      "notes": "בית קפה ומסעדת טאפאס טבעונית מבית היוצר של אנסטסיה",
      "lat": 32.08167,
      "lng": 34.7739273
    },
    {
      "id": "meshigane-zikhron-yaakov",
      "type": "restaurant",
      "typeLabel": "בית קפה",
      "name": "משיגנע",
      "city": "זכרון יעקב",
      "region": "צפון",
      "address": "המייסדים 41, זכרון יעקב",
      "website": "https://www.facebook.com/MeshiganeVeganCafe",
      "instagram": "https://www.instagram.com/meshigane.vegan.cafe/",
      "notes": "בית קפה 100% טבעוני באווירה ביתית הממוקם בחצר היסטורית",
      "lat": 32.5732,
      "lng": 34.9525
    },
    {
      "id": "elhanout-haifa",
      "type": "restaurant",
      "typeLabel": "מסעדה",
      "name": "אלחנאות",
      "city": "חיפה",
      "region": "צפון",
      "address": "סירקין 8, חיפה",
      "website": "",
      "instagram": "https://www.instagram.com/elhanout_haifa/",
      "notes": "אוכל מרוקאי טבעוני אותנטי בשוק תלפיות",
      "lat": 32.8085,
      "lng": 34.9998
    },
    {
      "id": "otentivi-dimona",
      "type": "shop",
      "typeLabel": "חנות",
      "name": "אותנטבעי",
      "city": "דימונה",
      "region": "דרום",
      "address": "הפועלים 16, בית מורן, אזור תעשייה דימונה",
      "website": "https://www.otentivee.co.il/",
      "instagram": "",
      "notes": "מפעל/מעדניה + קייטרינג טבעוני",
      "lat": 31.0708,
      "lng": 35.0327
    },
    {
      "id": "badra-rehovot",
      "type": "restaurant",
      "typeLabel": "מסעדה",
      "name": "בדרה",
      "city": "רחובות",
      "region": "מרכז",
      "address": "הרצל 173, רחובות",
      "website": "https://order.bitetech.co.il/#/417/home",
      "instagram": "",
      "notes": "חומוסייה/אוכל טבעוני באווירה כפרית",
      "lat": 31.8948,
      "lng": 34.8093
    },
    {
      "id": "mitz-marak-givatayim",
      "type": "restaurant",
      "typeLabel": "מסעדה",
      "name": "מיץ מרק",
      "city": "גבעתיים",
      "region": "מרכז",
      "address": "כצנלסון 49, גבעתיים",
      "website": "https://www.facebook.com/profile.php?id=100051158725727#",
      "instagram": "",
      "notes": "מיצים, מרקים ותבשילים טבעוניים",
      "lat": 32.0684,
      "lng": 34.811
    },
    {
      "id": "vegan-xpress-mitzpe-ramon",
      "type": "restaurant",
      "typeLabel": "מסעדה",
      "name": "ויגן אקספרס",
      "city": "מצפה רמון",
      "region": "דרום",
      "address": "נחל ניצנה 41, מצפה רמון",
      "website": "https://www.veganxpress777.com/",
      "instagram": "",
      "notes": "אוכל טבעוני במצפה רמון",
      "lat": 30.611,
      "lng": 34.801
    },
    {
      "id": "rainbow-tlv",
      "type": "restaurant",
      "typeLabel": "מסעדה",
      "name": "ריינבו",
      "city": "תל אביב-יפו",
      "region": "מרכז",
      "address": "אבן גבירול 88, תל אביב",
      "website": "https://www.facebook.com/rainbowpitta/",
      "instagram": "",
      "notes": "מקום טבעוני (פאסט פוד/המבורגרים)",
      "lat": 32.0853,
      "lng": 34.7818
    },
    {
      "id": "vegan-supplies-online",
      "type": "shop",
      "typeLabel": "חנות אונליין",
      "name": "Vegan Supplies",
      "city": "אונליין",
      "region": "אונליין",
      "address": "אונליין (משלוחים לכל הארץ)",
      "website": "https://vegansupplies.co.il/",
      "instagram": "https://www.instagram.com/vegansupplies/",
      "notes": "כשאתם מתארחים/מטיילים ורוצים להזמין למקום הלינה.",
      "lat": null,
      "lng": null
    },
    {
      "id": "j17-tlv",
      "type": "restaurant",
      "typeLabel": "מסעדה",
      "name": "J17 (הטבעונית)",
      "city": "תל אביב-יפו",
      "region": "מרכז",
      "address": "ירמיהו 17, תל אביב-יפו",
      "website": "https://j17.co.il/",
      "instagram": "https://www.instagram.com/j17vegan/",
      "notes": "אווירה ביתית ומנות מנחמות – אחלה לסיום יום בנמל.",
      "lat": 32.0948816,
      "lng": 34.7759012
    },
    {
      "id": "opa-tlv",
      "type": "restaurant",
      "typeLabel": "מסעדת שף",
      "name": "אופא",
      "city": "תל אביב-יפו",
      "region": "מרכז",
      "address": "החלוצים 8, תל אביב-יפו",
      "website": "https://www.opatlv.co.il/",
      "instagram": "https://www.instagram.com/opa_tlv/",
      "notes": "ארוחת טעימות שמוקדשת ל״ממלכת הצמחים״. מתאים לערב מיוחד.",
      "lat": 32.0600462,
      "lng": 34.7732208
    },
    {
      "id": "anastasia-tlv",
      "type": "restaurant",
      "typeLabel": "מסעדה/קפה",
      "name": "אנסטסיה",
      "city": "תל אביב-יפו",
      "region": "מרכז",
      "address": "פרישמן 54, תל אביב-יפו",
      "website": "https://anastasiatlv.co.il/",
      "instagram": "https://www.instagram.com/anastasiatlv/",
      "notes": "בראנץ׳ טבעוני, מאפים וקינוחים. מעולה ל״פתיחת סופ״ש״ בת״א.",
      "lat": 32.079516,
      "lng": 34.774872
    },
    {
      "id": "goodness-tlv",
      "type": "restaurant",
      "typeLabel": "אוכל מהיר בריא",
      "name": "גודנס",
      "city": "תל אביב-יפו",
      "region": "מרכז",
      "address": "קינג ג'ורג' 32, תל אביב-יפו",
      "website": "https://goodness.co.il/",
      "instagram": "https://www.instagram.com/goodness_tlv_il/",
      "notes": "כשבא לכם משהו מהיר: קערות, סלטים, סנדוויצ׳ים וקינוחים.",
      "lat": 32.0733474673479,
      "lng": 34.7746361460358
    },
    {
      "id": "green-roll-tlv",
      "type": "restaurant",
      "typeLabel": "מסעדה טבעונית",
      "name": "גרין רול",
      "city": "תל אביב-יפו",
      "region": "מרכז",
      "address": "אחד העם 15, תל אביב-יפו",
      "website": "https://thegreenroll.co.il/",
      "instagram": "",
      "notes": "מסעדת סושי טבעונית (100% טבעוני). אם הסיכה לא מופיעה מיד – זה ייטען אוטומטית לפי הכתובת.",
      "lat": null,
      "lng": null
    },
    {
      "id": "green-cat-tlv",
      "type": "restaurant",
      "typeLabel": "מסעדה טבעונית",
      "name": "החתול הירוק",
      "city": "תל אביב-יפו",
      "region": "מרכז",
      "address": "לבונטין 9, תל אביב-יפו",
      "website": "https://www.facebook.com/greencatvegan",
      "instagram": "",
      "notes": "אוכל טבעוני בלב העיר. אם הסיכה לא מופיעה מיד – זה ייטען אוטומטית לפי הכתובת.",
      "lat": null,
      "lng": null
    },
    {
      "id": "market-vegan-dizengoff",
      "type": "shop",
      "typeLabel": "מכולת/מעדניה טבעונית",
      "name": "מרקט טבעוני דיזינגוף",
      "city": "תל אביב-יפו",
      "region": "מרכז",
      "address": "דיזינגוף 140, תל אביב-יפו",
      "website": "https://www.waze.com/he/live-map/directions/il/%D7%9E%D7%97%D7%95%D7%96-%D7%AA%D7%9C-%D7%90%D7%91%D7%99%D7%91/%D7%AA%D7%9C-%D7%90%D7%91%D7%99%D7%91-%D7%99%D7%A4%D7%95/%D7%9E%D7%A8%D7%A7%D7%98-%D7%98%D7%91%D7%A2%D7%95%D7%A0%D7%99-%D7%93%D7%99%D7%96%D7%99%D7%A0%D7%92%D7%95%D7%A3?to=place.ChIJQSQD9odLHRURiEbgP4gc1Sg",
      "instagram": "https://www.instagram.com/marketlv.vegan/",
      "notes": "עצירה לשופינג: גבינות טבעוניות, חטיפים, מצרכים וקפואים.",
      "lat": 32.0824,
      "lng": 34.77417
    },
    {
      "id": "meshek-barzilay-tlv",
      "type": "restaurant",
      "typeLabel": "מסעדה + מעדניה",
      "name": "משק ברזילי",
      "city": "תל אביב-יפו",
      "region": "מרכז",
      "address": "אחד העם 6, תל אביב-יפו",
      "website": "https://www.meshekbarzilay.co.il/",
      "instagram": "https://www.instagram.com/meshekbarzilay/",
      "notes": "מקום טבעוני ותיק עם תפריט עונתי ואווירה ירוקה בנווה צדק.",
      "lat": 32.063533,
      "lng": 34.768655
    },
    {
      "id": "neroli-tlv",
      "type": "shop",
      "typeLabel": "חנות בריאות + דיינר",
      "name": "נרולי",
      "city": "תל אביב-יפו",
      "region": "מרכז",
      "address": "ליליינבלום 3, תל אביב-יפו",
      "website": "https://www.neroli.co.il/",
      "instagram": "",
      "notes": "חנות בריאות עם מטבח טבעוני (Raw/Organic) ומשקאות.",
      "lat": 32.0626,
      "lng": 34.7677
    },
    {
      "id": "hummus-bar-haifa",
      "type": "restaurant",
      "typeLabel": "מסעדה",
      "name": "חומוס BAR (חיפה)",
      "city": "חיפה",
      "region": "צפון",
      "address": "נתנזון 22, חיפה",
      "website": "https://easy.co.il/en/page/10043901",
      "instagram": "https://www.instagram.com/hummusbarhaifa/",
      "notes": "אחד המקומות הטבעוניים המוכרים בחיפה – חומוס וכל השואו מסביב.",
      "lat": 32.816976,
      "lng": 35.000995
    },
    {
      "id": "yamima-phk",
      "type": "restaurant",
      "typeLabel": "פודטראק/מסעדה",
      "name": "יאמימה",
      "city": "פרדס חנה-כרכור",
      "region": "צפון",
      "address": "המייסדים 26, פרדס חנה-כרכור",
      "website": "https://www.facebook.com/YamimaVegan#",
      "instagram": "https://www.instagram.com/yamima_vegan/",
      "notes": "שווארמה סייטן ועוד מנות טבעוניות מושקעות – שווה קפיצה לצפון.",
      "lat": 32.4728028,
      "lng": 34.9742001
    }
  ]
}