{
  "updatedAt": "2026-02-10",
  "about_he": "רק מקומות שהם 100% טבעוניים (מסעדות/חנויות). עדכנו פרטים אם משהו השתנה.",
  "about_en": "Only places that are 100% vegan (restaurants/shops). Please verify hours and update if something changes.",
  "places": [
    {
      "id": "teva-haochel-kfar-saba",
      "type": "restaurant",
      "typeLabel_he": "מסעדה",
      "name": "Teva Haochel",
      "name_he": "טבע האוכל",
      "city": "Kfar Saba",
      "city_he": "כפר סבא",
      "region": "Center",
      "region_he": "מרכז",
      "address": "Weizman 140, Kfar Saba",
      "address_he": "ויצמן 140, כפר סבא",
      "website": "https://www.tevahaochel.online/",
      "instagram": "",
      "notes_en": "100% vegan home-style dishes",
      "notes_he": "מסעדה 100% טבעונית בסגנון ביתי",
      "lat": 32.175,
      "lng": 34.9069,
      "typeLabel_en": "Restaurant"
    },
    {
      "id": "simonchu-tel-aviv",
      "type": "restaurant",
      "typeLabel_he": "בית קפה ומאפייה",
      "name": "Simonchu",
      "name_he": "סימונצ׳ו",
      "city": "Tel Aviv-Yafo",
      "city_he": "תל אביב-יפו",
      "region": "Center",
      "region_he": "מרכז",
      "address": "Shalma Rd 3, Tel Aviv-Yafo",
      "address_he": "דרך שלמה 3, תל אביב-יפו",
      "website": "https://simonchu.co.il/",
      "instagram": "",
      "notes_en": "Vegan bakery and cafe specializing in handmade pastries and cakes",
      "notes_he": "בית קפה ומאפייה טבעונית המתמחה במאפים ועוגות בעבודת יד",
      "lat": 32.0526,
      "lng": 34.7611,
      "typeLabel_en": "Cafe & bakery"
    },
    {
      "id": "anicca-tel-aviv",
      "type": "restaurant",
      "typeLabel_he": "בית קפה ומסעדה",
      "name": "Anicca",
      "name_he": "אניצ׳ה",
      "city": "Tel Aviv-Yafo",
      "city_he": "תל אביב-יפו",
      "region": "Center",
      "region_he": "מרכז",
      "address": "Dizengoff 130, Tel Aviv-Yafo",
      "address_he": "דיזנגוף 130, תל אביב-יפו",
      "website": "https://www.anicca.co.il/",
      "instagram": "",
      "notes_en": "Modern vegan cafe and evening tapas bar by the creators of Anastasia",
      "notes_he": "בית קפה ומסעדת טאפאס טבעונית מבית היוצר של אנסטסיה",
      "lat": 32.08167,
      "lng": 34.7739273,
      "typeLabel_en": "Cafe & restaurant"
    },
    {
      "id": "meshigane-zikhron-yaakov",
      "type": "restaurant",
      "typeLabel_he": "בית קפה",
      "name": "Meshigane",
      "name_he": "משיגנע",
      "city": "Zikhron Ya'akov",
      "city_he": "זכרון יעקב",
      "region": "North",
      "region_he": "צפון",
      "address": "HaMeyasdim 41, Zikhron Ya'akov",
      "address_he": "המייסדים 41, זכרון יעקב",
      "website": "https://www.facebook.com/MeshiganeVeganCafe",
      "instagram": "https://www.instagram.com/meshigane.vegan.cafe/",
      "notes_en": "Cozy 100% vegan cafe in a historic courtyard with high-quality home-style food",
      "notes_he": "בית קפה 100% טבעוני באווירה ביתית הממוקם בחצר היסטורית",
      "lat": 32.5732,
      "lng": 34.9525,
      "typeLabel_en": "Cafe"
    },
    {
      "id": "elhanout-haifa",
      "type": "restaurant",
      "typeLabel_he": "מסעדה",
      "name": "Elhanout",
      "name_he": "אלחנאות",
      "city": "Haifa",
      "city_he": "חיפה",
      "region": "North",
      "region_he": "צפון",
      "address": "Sirkin 8, Haifa",
      "address_he": "סירקין 8, חיפה",
      "website": "",
      "instagram": "https://www.instagram.com/elhanout_haifa/",
      "notes_en": "Authentic vegan Moroccan soul food in Talpiot Market",
      "notes_he": "אוכל מרוקאי טבעוני אותנטי בשוק תלפיות",
      "lat": 32.8085,
      "lng": 34.9998,
      "typeLabel_en": "Restaurant"
    },
    {
      "id": "otentivi-dimona",
      "type": "shop",
      "typeLabel_he": "חנות",
      "name": "Otentivi",
      "name_he": "אותנטבעי",
      "city": "Dimona",
      "city_he": "דימונה",
      "region": "South",
      "region_he": "דרום",
      "address": "HaPoalim 16, Beit Moran, Dimona industrial area",
      "address_he": "הפועלים 16, בית מורן, אזור תעשייה דימונה",
      "website": "https://www.otentivee.co.il/",
      "instagram": "",
      "notes_en": "Vegan factory/deli & catering",
      "notes_he": "מפעל/מעדניה + קייטרינג טבעוני",
      "lat": 31.0708,
      "lng": 35.0327,
      "typeLabel_en": "Shop"
    },
    {
      "id": "badra-rehovot",
      "type": "restaurant",
      "typeLabel_he": "מסעדה",
      "name": "Badra",
      "name_he": "בדרה",
      "city": "Rehovot",
      "city_he": "רחובות",
      "region": "Center",
      "region_he": "מרכז",
      "address": "Herzl 173, Rehovot",
      "address_he": "הרצל 173, רחובות",
      "website": "https://order.bitetech.co.il/#/417/home",
      "instagram": "",
      "notes_en": "Vegan hummus & home-style food",
      "notes_he": "חומוסייה/אוכל טבעוני באווירה כפרית",
      "lat": 31.8948,
      "lng": 34.8093,
      "typeLabel_en": "Restaurant"
    },
    {
      "id": "mitz-marak-givatayim",
      "type": "restaurant",
      "typeLabel_he": "מסעדה",
      "name": "Mitz Marak",
      "name_he": "מיץ מרק",
      "city": "Givatayim",
      "city_he": "גבעתיים",
      "region": "Center",
      "region_he": "מרכז",
      "address": "Katzenelson 49, Givatayim",
      "address_he": "כצנלסון 49, גבעתיים",
      "website": "https://www.facebook.com/profile.php?id=100051158725727#",
      "instagram": "",
      "notes_en": "Vegan soups, stews & juices",
      "notes_he": "מיצים, מרקים ותבשילים טבעוניים",
      "lat": 32.0684,
      "lng": 34.811,
      "typeLabel_en": "Restaurant"
    },
    {
      "id": "vegan-xpress-mitzpe-ramon",
      "type": "restaurant",
      "typeLabel_he": "מסעדה",
      "name": "Vegan Xpress",
      "name_he": "ויגן אקספרס",
      "city": "Mitzpe Ramon",
      "city_he": "מצפה רמון",
      "region": "South",
      "region_he": "דרום",
      "address": "Nahal Nizana 41, Mitzpe Ramon",
      "address_he": "נחל ניצנה 41, מצפה רמון",
      "website": "https://www.veganxpress777.com/",
      "instagram": "",
      "notes_en": "Vegan food in Mitzpe Ramon",
      "notes_he": "אוכל טבעוני במצפה רמון",
      "lat": 30.611,
      "lng": 34.801,
      "typeLabel_en": "Restaurant"
    },
    {
      "id": "rainbow-tlv",
      "type": "restaurant",
      "typeLabel_he": "מסעדה",
      "name": "Rainbow",
      "name_he": "ריינבו",
      "city": "Tel Aviv-Yafo",
      "city_he": "תל אביב-יפו",
      "region": "Center",
      "region_he": "מרכז",
      "address": "Ibn Gabirol 88, Tel Aviv-Yafo",
      "address_he": "אבן גבירול 88, תל אביב",
      "website": "https://www.facebook.com/rainbowpitta/",
      "instagram": "",
      "notes_en": "Vegan fast food",
      "notes_he": "מקום טבעוני (פאסט פוד/המבורגרים)",
      "lat": 32.0853,
      "lng": 34.7818,
      "typeLabel_en": "Restaurant"
    },
    {
      "id": "vegan-supplies-online",
      "name": "Vegan Supplies",
      "name_he": "Vegan Supplies",
      "type": "shop",
      "typeLabel_he": "חנות אונליין",
      "city": "Online",
      "city_he": "אונליין",
      "region": "Online",
      "region_he": "אונליין",
      "address": "Online (Israel-wide delivery)",
      "address_he": "אונליין (משלוחים לכל הארץ)",
      "lat": null,
      "lng": null,
      "website": "https://vegansupplies.co.il/",
      "instagram": "https://www.instagram.com/vegansupplies/",
      "notes_he": "כשאתם מתארחים/מטיילים ורוצים להזמין למקום הלינה.",
      "notes_en": "Useful for ordering vegan products to wherever you’re staying.",
      "typeLabel_en": "Online shop"
    },
    {
      "id": "j17-tlv",
      "name": "J17",
      "name_he": "J17 (הטבעונית)",
      "type": "restaurant",
      "typeLabel_he": "מסעדה",
      "city": "Tel Aviv-Yafo",
      "city_he": "תל אביב-יפו",
      "region": "Center",
      "region_he": "מרכז",
      "address": "Yirmiyahu St 17, Tel Aviv-Yafo",
      "address_he": "ירמיהו 17, תל אביב-יפו",
      "lat": 32.0948816,
      "lng": 34.7759012,
      "website": "https://j17.co.il/",
      "instagram": "https://www.instagram.com/j17vegan/",
      "notes_he": "אווירה ביתית ומנות מנחמות – אחלה לסיום יום בנמל.",
      "notes_en": "Comforting dishes with a homey vibe — great near the port.",
      "typeLabel_en": "Restaurant"
    },
    {
      "id": "opa-tlv",
      "name": "Opa",
      "name_he": "אופא",
      "type": "restaurant",
      "typeLabel_he": "מסעדת שף",
      "city": "Tel Aviv-Yafo",
      "city_he": "תל אביב-יפו",
      "region": "Center",
      "region_he": "מרכז",
      "address": "Ha-Khalutzim St 8, Tel Aviv-Yafo",
      "address_he": "החלוצים 8, תל אביב-יפו",
      "lat": 32.0600462,
      "lng": 34.7732208,
      "website": "https://www.opatlv.co.il/",
      "instagram": "https://www.instagram.com/opa_tlv/",
      "notes_he": "ארוחת טעימות שמוקדשת ל״ממלכת הצמחים״. מתאים לערב מיוחד.",
      "notes_en": "Plant-focused chef’s tasting menu — perfect for a special night.",
      "typeLabel_en": "Chef restaurant"
    },
    {
      "id": "anastasia-tlv",
      "name": "Anastasia",
      "name_he": "אנסטסיה",
      "type": "restaurant",
      "typeLabel_he": "מסעדה/קפה",
      "city": "Tel Aviv-Yafo",
      "city_he": "תל אביב-יפו",
      "region": "Center",
      "region_he": "מרכז",
      "address": "Frishman St 54, Tel Aviv-Yafo",
      "address_he": "פרישמן 54, תל אביב-יפו",
      "lat": 32.079516,
      "lng": 34.774872,
      "website": "https://anastasiatlv.co.il/",
      "instagram": "https://www.instagram.com/anastasiatlv/",
      "notes_he": "בראנץ׳ טבעוני, מאפים וקינוחים. מעולה ל״פתיחת סופ״ש״ בת״א.",
      "notes_en": "Vegan café with brunch, pastries and desserts — a classic Tel Aviv stop.",
      "typeLabel_en": "Restaurant / cafe"
    },
    {
      "id": "goodness-tlv",
      "name": "Goodness",
      "name_he": "גודנס",
      "type": "restaurant",
      "typeLabel_he": "אוכל מהיר בריא",
      "city": "Tel Aviv-Yafo",
      "city_he": "תל אביב-יפו",
      "region": "Center",
      "region_he": "מרכז",
      "address": "King George St 32, Tel Aviv-Yafo",
      "address_he": "קינג ג'ורג' 32, תל אביב-יפו",
      "lat": 32.0733474673479,
      "lng": 34.7746361460358,
      "website": "https://goodness.co.il/",
      "instagram": "https://www.instagram.com/goodness_tlv_il/",
      "notes_he": "כשבא לכם משהו מהיר: קערות, סלטים, סנדוויצ׳ים וקינוחים.",
      "notes_en": "Quick, feel-good vegan bowls, salads, sandwiches and sweets.",
      "typeLabel_en": "Healthy fast food"
    },
    {
      "id": "green-roll-tlv",
      "name": "Green Roll",
      "name_he": "גרין רול",
      "type": "restaurant",
      "typeLabel_he": "מסעדה טבעונית",
      "city": "Tel Aviv-Yafo",
      "city_he": "תל אביב-יפו",
      "region": "Center",
      "region_he": "מרכז",
      "address": "Ahad Ha'am St 15, Tel Aviv-Yafo",
      "address_he": "אחד העם 15, תל אביב-יפו",
      "lat": null,
      "lng": null,
      "website": "https://thegreenroll.co.il/",
      "instagram": "",
      "notes_he": "מסעדת סושי טבעונית (100% טבעוני). אם הסיכה לא מופיעה מיד – זה ייטען אוטומטית לפי הכתובת.",
      "notes_en": "100% vegan sushi restaurant. If the pin doesn’t appear immediately, it will load automatically based on the address.",
      "typeLabel_en": "Vegan restaurant"
    },
    {
      "id": "green-cat-tlv",
      "name": "The Green Cat",
      "name_he": "החתול הירוק",
      "type": "restaurant",
      "typeLabel_he": "מסעדה טבעונית",
      "city": "Tel Aviv-Yafo",
      "city_he": "תל אביב-יפו",
      "region": "Center",
      "region_he": "מרכז",
      "address": "Levontin St 9, Tel Aviv-Yafo",
      "address_he": "לבונטין 9, תל אביב-יפו",
      "lat": null,
      "lng": null,
      "website": "https://www.facebook.com/greencatvegan",
      "instagram": "",
      "notes_he": "אוכל טבעוני בלב העיר. אם הסיכה לא מופיעה מיד – זה ייטען אוטומטית לפי הכתובת.",
      "notes_en": "Vegan food in the city center. If the pin doesn’t appear immediately, it will load automatically based on the address.",
      "typeLabel_en": "Vegan restaurant"
    },
    {
      "id": "market-vegan-dizengoff",
      "name": "Market Vegan Dizengoff",
      "name_he": "מרקט טבעוני דיזינגוף",
      "type": "shop",
      "typeLabel_he": "מכולת/מעדניה טבעונית",
      "city": "Tel Aviv-Yafo",
      "city_he": "תל אביב-יפו",
      "region": "Center",
      "region_he": "מרכז",
      "address": "Dizengoff St 140, Tel Aviv-Yafo",
      "address_he": "דיזינגוף 140, תל אביב-יפו",
      "lat": 32.0824,
      "lng": 34.77417,
      "website": "https://www.waze.com/he/live-map/directions/il/%D7%9E%D7%97%D7%95%D7%96-%D7%AA%D7%9C-%D7%90%D7%91%D7%99%D7%91/%D7%AA%D7%9C-%D7%90%D7%91%D7%99%D7%91-%D7%99%D7%A4%D7%95/%D7%9E%D7%A8%D7%A7%D7%98-%D7%98%D7%91%D7%A2%D7%95%D7%A0%D7%99-%D7%93%D7%99%D7%96%D7%99%D7%A0%D7%92%D7%95%D7%A3?to=place.ChIJQSQD9odLHRURiEbgP4gc1Sg",
      "instagram": "https://www.instagram.com/marketlv.vegan/",
      "notes_he": "עצירה לשופינג: גבינות טבעוניות, חטיפים, מצרכים וקפואים.",
      "notes_en": "Vegan grocery stop for cheeses, snacks, staples and frozen items.",
      "typeLabel_en": "Vegan grocery / deli"
    },
    {
      "id": "meshek-barzilay-tlv",
      "name": "Meshek Barzilay",
      "name_he": "משק ברזילי",
      "type": "restaurant",
      "typeLabel_he": "מסעדה + מעדניה",
      "city": "Tel Aviv-Yafo",
      "city_he": "תל אביב-יפו",
      "region": "Center",
      "region_he": "מרכז",
      "address": "Ahad Ha'am St 6, Tel Aviv-Yafo",
      "address_he": "אחד העם 6, תל אביב-יפו",
      "lat": 32.063533,
      "lng": 34.768655,
      "website": "https://www.meshekbarzilay.co.il/",
      "instagram": "https://www.instagram.com/meshekbarzilay/",
      "notes_he": "מקום טבעוני ותיק עם תפריט עונתי ואווירה ירוקה בנווה צדק.",
      "notes_en": "Long-running vegan spot with seasonal dishes in Neve Tzedek.",
      "typeLabel_en": "Restaurant + deli"
    },
    {
      "id": "neroli-tlv",
      "name": "Neroli",
      "name_he": "נרולי",
      "type": "shop",
      "typeLabel_he": "חנות בריאות + דיינר",
      "city": "Tel Aviv-Yafo",
      "city_he": "תל אביב-יפו",
      "region": "Center",
      "region_he": "מרכז",
      "address": "Lilienblum St 3, Tel Aviv-Yafo",
      "address_he": "ליליינבלום 3, תל אביב-יפו",
      "lat": 32.0626,
      "lng": 34.7677,
      "website": "https://www.neroli.co.il/",
      "instagram": "",
      "notes_he": "חנות בריאות עם מטבח טבעוני (Raw/Organic) ומשקאות.",
      "notes_en": "Health-food store with a vegan (raw/organic) kitchen and drinks.",
      "typeLabel_en": "Health-food store + diner"
    },
    {
      "id": "hummus-bar-haifa",
      "name": "Hummus BAR",
      "name_he": "חומוס BAR (חיפה)",
      "type": "restaurant",
      "typeLabel_he": "מסעדה",
      "city": "Haifa",
      "city_he": "חיפה",
      "region": "North",
      "region_he": "צפון",
      "address": "Natanzon St 22, Haifa",
      "address_he": "נתנזון 22, חיפה",
      "lat": 32.816976,
      "lng": 35.000995,
      "website": "https://easy.co.il/en/page/10043901",
      "instagram": "https://www.instagram.com/hummusbarhaifa/",
      "notes_he": "אחד המקומות הטבעוניים המוכרים בחיפה – חומוס וכל השואו מסביב.",
      "notes_en": "Popular vegan spot in Haifa with hummus and hearty mains.",
      "typeLabel_en": "Restaurant"
    },
    {
      "id": "yamima-phk",
      "name": "Yamima",
      "name_he": "יאמימה",
      "type": "restaurant",
      "typeLabel_he": "פודטראק/מסעדה",
      "city": "Pardes Hanna-Karkur",
      "city_he": "פרדס חנה-כרכור",
      "region": "North",
      "region_he": "צפון",
      "address": "HaMeyasdim St 26, Pardes Hanna-Karkur",
      "address_he": "המייסדים 26, פרדס חנה-כרכור",
      "lat": 32.4728028,
      "lng": 34.9742001,
      "website": "https://www.facebook.com/YamimaVegan#",
      "instagram": "https://www.instagram.com/yamima_vegan/",
      "notes_he": "שווארמה סייטן ועוד מנות טבעוניות מושקעות – שווה קפיצה לצפון.",
      "notes_en": "Seitan shawarma and more — a fun North/PHK stop.",
      "typeLabel_en": "Food truck / restaurant"
    }
  ]
}