{
  "updatedAt": "2026-02-10",
  "about": "rk mkvmvt shhm 100% Veganym (msdvt/khnvyvt). dknv prtym m mshhv hshtnh.",
  "places": [
    {
      "id": "teva-haochel-kfar-saba",
      "type": "restaurant",
      "typeLabel": "msdh",
      "name": "tb hvkl",
      "city": "kpr sb",
      "region": "mrkz",
      "address": "vytsmn 140, kpr sb",
      "website": "https://www.tevahaochel.online/",
      "instagram": "",
      "notes": "msdh 100% Vegant bsgnvn Homey",
      "lat": 32.175,
      "lng": 34.9069
    },
    {
      "id": "simonchu-tel-aviv",
      "type": "restaurant",
      "typeLabel": "Home kph vmpyyh",
      "name": "symvnts'v",
      "city": "tl byb-ypv",
      "region": "mrkz",
      "address": "drk shlmh 3, tl byb-ypv",
      "website": "https://simonchu.co.il/",
      "instagram": "",
      "notes": "Home kph vmpyyh Vegant hmtmkhh bmpym vvgvt bbvdt yd",
      "lat": 32.0526,
      "lng": 34.7611
    },
    {
      "id": "anicca-tel-aviv",
      "type": "restaurant",
      "typeLabel": "Home kph vmsdh",
      "name": "nyts'h",
      "city": "tl byb-ypv",
      "region": "mrkz",
      "address": "dyzngvp 130, tl byb-ypv",
      "website": "https://www.anicca.co.il/",
      "instagram": "",
      "notes": "Home kph vmsdt tps Vegant mHome hyvtsr shl nstsyh",
      "lat": 32.08167,
      "lng": 34.7739273
    },
    {
      "id": "meshigane-zikhron-yaakov",
      "type": "restaurant",
      "typeLabel": "Home kph",
      "name": "mshygn",
      "city": "zkrvn ykb",
      "region": "tspvn",
      "address": "hmyysdym 41, zkrvn ykb",
      "website": "https://www.facebook.com/MeshiganeVeganCafe",
      "instagram": "https://www.instagram.com/meshigane.vegan.cafe/",
      "notes": "Home kph 100% Vegan bvvyrh Homeyt hmmvkm bkhtsr hystvryt",
      "lat": 32.5732,
      "lng": 34.9525
    },
    {
      "id": "elhanout-haifa",
      "type": "restaurant",
      "typeLabel": "msdh",
      "name": "lkhnvt",
      "city": "khyph",
      "region": "tspvn",
      "address": "syrkyn 8, khyph",
      "website": "",
      "instagram": "https://www.instagram.com/elhanout_haifa/",
      "notes": "vkl mrvky Vegan vtnty bshvk tlpyvt",
      "lat": 32.8085,
      "lng": 34.9998
    },
    {
      "id": "otentivi-dimona",
      "type": "shop",
      "typeLabel": "khnvt",
      "name": "vtntby",
      "city": "dymvnh",
      "region": "drvm",
      "address": "hpvlym 16, Home mvrn, zvr tshyyh dymvnh",
      "website": "https://www.otentivee.co.il/",
      "instagram": "",
      "notes": "mpl/mdnyh + kyytryng Vegan",
      "lat": 31.0708,
      "lng": 35.0327
    },
    {
      "id": "badra-rehovot",
      "type": "restaurant",
      "typeLabel": "msdh",
      "name": "bdrh",
      "city": "rkhvbvt",
      "region": "mrkz",
      "address": "hrtsl 173, rkhvbvt",
      "website": "https://order.bitetech.co.il/#/417/home",
      "instagram": "",
      "notes": "khvmvsyyh/vkl Vegan bvvyrh kpryt",
      "lat": 31.8948,
      "lng": 34.8093
    },
    {
      "id": "mitz-marak-givatayim",
      "type": "restaurant",
      "typeLabel": "msdh",
      "name": "myts mrk",
      "city": "gbtyym",
      "region": "mrkz",
      "address": "ktsnlsvn 49, gbtyym",
      "website": "https://www.facebook.com/profile.php?id=100051158725727#",
      "instagram": "",
      "notes": "mytsym, mrkym vtbshylym Veganym",
      "lat": 32.0684,
      "lng": 34.811
    },
    {
      "id": "vegan-xpress-mitzpe-ramon",
      "type": "restaurant",
      "typeLabel": "msdh",
      "name": "vygn ksprs",
      "city": "mtsph rmvn",
      "region": "drvm",
      "address": "nkhl nytsnh 41, mtsph rmvn",
      "website": "https://www.veganxpress777.com/",
      "instagram": "",
      "notes": "vkl Vegan bmtsph rmvn",
      "lat": 30.611,
      "lng": 34.801
    },
    {
      "id": "rainbow-tlv",
      "type": "restaurant",
      "typeLabel": "msdh",
      "name": "ryynbv",
      "city": "tl byb-ypv",
      "region": "mrkz",
      "address": "bn gbyrvl 88, tl byb",
      "website": "https://www.facebook.com/rainbowpitta/",
      "instagram": "",
      "notes": "mkvm Vegan (pst pvd/hmbvrgrym)",
      "lat": 32.0853,
      "lng": 34.7818
    },
    {
      "id": "vegan-supplies-online",
      "type": "shop",
      "typeLabel": "khnvt vnlyyn",
      "name": "Vegan Supplies",
      "city": "vnlyyn",
      "region": "vnlyyn",
      "address": "vnlyyn (Shippingym lkl hrts)",
      "website": "https://vegansupplies.co.il/",
      "instagram": "https://www.instagram.com/vegansupplies/",
      "notes": "kshtm mtrkhym/mtyylym vrvtsym lhzmyn lmkvm hlynh.",
      "lat": null,
      "lng": null
    },
    {
      "id": "j17-tlv",
      "type": "restaurant",
      "typeLabel": "msdh",
      "name": "J17 (hVegant)",
      "city": "tl byb-ypv",
      "region": "mrkz",
      "address": "yrmyhv 17, tl byb-ypv",
      "website": "https://j17.co.il/",
      "instagram": "https://www.instagram.com/j17vegan/",
      "notes": "vvyrh Homeyt vmnvt mnkhmvt – khlh lsyvm yvm bnml.",
      "lat": 32.0948816,
      "lng": 34.7759012
    },
    {
      "id": "opa-tlv",
      "type": "restaurant",
      "typeLabel": "msdt shp",
      "name": "vp",
      "city": "tl byb-ypv",
      "region": "mrkz",
      "address": "hkhlvtsym 8, tl byb-ypv",
      "website": "https://www.opatlv.co.il/",
      "instagram": "https://www.instagram.com/opa_tlv/",
      "notes": "rvkht tymvt shmvkdsht l\"mmlkt htsmkhym\". mtym lrb myvkhd.",
      "lat": 32.0600462,
      "lng": 34.7732208
    },
    {
      "id": "anastasia-tlv",
      "type": "restaurant",
      "typeLabel": "msdh/kph",
      "name": "nstsyh",
      "city": "tl byb-ypv",
      "region": "mrkz",
      "address": "pryOil 54, tl byb-ypv",
      "website": "https://anastasiatlv.co.il/",
      "instagram": "https://www.instagram.com/anastasiatlv/",
      "notes": "brnts' Vegan, mpym vkynvkhym. mvlh l\"ptykht svp\"sh\" bt\".",
      "lat": 32.079516,
      "lng": 34.774872
    },
    {
      "id": "goodness-tlv",
      "type": "restaurant",
      "typeLabel": "vkl mhyr bry",
      "name": "gvdns",
      "city": "tl byb-ypv",
      "region": "mrkz",
      "address": "kyng g'vrg' 32, tl byb-ypv",
      "website": "https://goodness.co.il/",
      "instagram": "https://www.instagram.com/goodness_tlv_il/",
      "notes": "kshb lkm mshhv mhyr: krvt, sltym, sndvvyts'ym vkynvkhym.",
      "lat": 32.0733474673479,
      "lng": 34.7746361460358
    },
    {
      "id": "green-roll-tlv",
      "type": "restaurant",
      "typeLabel": "msdh Vegant",
      "name": "gryn rvl",
      "city": "tl byb-ypv",
      "region": "mrkz",
      "address": "khd hm 15, tl byb-ypv",
      "website": "https://thegreenroll.co.il/",
      "instagram": "",
      "notes": "msdt svshy Vegant (100% Vegan). m hsykh l mvpyh myd – zh yytn vtvmtyt lpy hktvbt.",
      "lat": null,
      "lng": null
    },
    {
      "id": "green-cat-tlv",
      "type": "restaurant",
      "typeLabel": "msdh Vegant",
      "name": "hkhtvl hyrvk",
      "city": "tl byb-ypv",
      "region": "mrkz",
      "address": "lbvntyn 9, tl byb-ypv",
      "website": "https://www.facebook.com/greencatvegan",
      "instagram": "",
      "notes": "vkl Vegan blb hyr. m hsykh l mvpyh myd – zh yytn vtvmtyt lpy hktvbt.",
      "lat": null,
      "lng": null
    },
    {
      "id": "market-vegan-dizengoff",
      "type": "shop",
      "typeLabel": "mkvlt/mdnyh Vegant",
      "name": "mrkt Vegan dyzyngvp",
      "city": "tl byb-ypv",
      "region": "mrkz",
      "address": "dyzyngvp 140, tl byb-ypv",
      "website": "https://www.waze.com/he/live-map/directions/il/%D7%9E%D7%97%D7%95%D7%96-%D7%AA%D7%9C-%D7%90%D7%91%D7%99%D7%91/%D7%AA%D7%9C-%D7%90%D7%91%D7%99%D7%91-%D7%99%D7%A4%D7%95/%D7%9E%D7%A8%D7%A7%D7%98-%D7%98%D7%91%D7%A2%D7%95%D7%A0%D7%99-%D7%93%D7%99%D7%96%D7%99%D7%A0%D7%92%D7%95%D7%A3?to=place.ChIJQSQD9odLHRURiEbgP4gc1Sg",
      "instagram": "https://www.instagram.com/marketlv.vegan/",
      "notes": "tsyrh lshvpyng: gbynvt Veganvt, khtypym, mtsrkym vkpvym.",
      "lat": 32.0824,
      "lng": 34.77417
    },
    {
      "id": "meshek-barzilay-tlv",
      "type": "restaurant",
      "typeLabel": "msdh + mdnyh",
      "name": "mshk brzyly",
      "city": "tl byb-ypv",
      "region": "mrkz",
      "address": "khd hm 6, tl byb-ypv",
      "website": "https://www.meshekbarzilay.co.il/",
      "instagram": "https://www.instagram.com/meshekbarzilay/",
      "notes": "mkvm Vegan vtyk m tpryt vnty vvvyrh yrvkh bnvvh tsdk.",
      "lat": 32.063533,
      "lng": 34.768655
    },
    {
      "id": "neroli-tlv",
      "type": "shop",
      "typeLabel": "khnvt bryvt + dyynr",
      "name": "nrvly",
      "city": "tl byb-ypv",
      "region": "mrkz",
      "address": "lylyynblvm 3, tl byb-ypv",
      "website": "https://www.neroli.co.il/",
      "instagram": "",
      "notes": "khnvt bryvt m mtbkh Vegan (Raw/Organic) vmshkvt.",
      "lat": 32.0626,
      "lng": 34.7677
    },
    {
      "id": "hummus-bar-haifa",
      "type": "restaurant",
      "typeLabel": "msdh",
      "name": "khvmvs BAR (khyph)",
      "city": "khyph",
      "region": "tspvn",
      "address": "ntnzvn 22, khyph",
      "website": "https://easy.co.il/en/page/10043901",
      "instagram": "https://www.instagram.com/hummusbarhaifa/",
      "notes": "khd hmkvmvt hVeganym hmvkrym bkhyph – khvmvs vkl hshvv msbyb.",
      "lat": 32.816976,
      "lng": 35.000995
    },
    {
      "id": "yamima-phk",
      "type": "restaurant",
      "typeLabel": "pvdtrk/msdh",
      "name": "ymymh",
      "city": "prds khnh-krkvr",
      "region": "tspvn",
      "address": "hmyysdym 26, prds khnh-krkvr",
      "website": "https://www.facebook.com/YamimaVegan#",
      "instagram": "https://www.instagram.com/yamima_vegan/",
      "notes": "shvvrmh syytn vvd mnvt Veganvt mvshkvt – shvvh kpytsh ltspvn.",
      "lat": 32.4728028,
      "lng": 34.9742001
    }
  ]
}